{"version": 0.6, "generator": "Overpass API 0.7.62.10 2d4cfc48", "osm3s": {"timestamp_osm_base": "2026-02-18T23:56:09Z", "copyright": "The data included in this document is from www.openstreetmap.org. The data is made available under ODbL."}, "elements": [{"type": "node", "id": 2969788364, "lat": 41.9778891, "lon": -87.6688004, "tags": {"addr:city": "Chicago", "addr:housenumber": "1509", "addr:postcode": "60640", "addr:state": "IL", "addr:street": "West Berwyn Avenue", "healthcare": "psychotherapist", "healthcare:speciality": "psychiatry", "name": "Andersonville Behavioral Health", "phone": "+1 773 616 4222", "smoking": "no", "website": "https://abhchicago.com/", "wheelchair": "yes"}}, {"type": "node", "id": 8942348524, "lat": 41.7659043, "lon": -87.5807789, "tags": {"addr:city": "Chicago", "addr:housenumber": "1817", "addr:postcode": "60649", "addr:state": "IL", "addr:street": "East 71st Street", "healthcare": "psychotherapist", "name": "Sista Afya Community Mental Wellness", "website": "https://www.sistaafya.com/"}}, {"type": "node", "id": 9650141760, "lat": 41.9599583, "lon": -87.6829866, "tags": {"addr:city": "Chicago", "addr:housenumber": "4312", "addr:postcode": "60618", "addr:state": "IL", "addr:street": "North Lincoln Avenue", "healthcare": "psychotherapist", "healthcare:speciality": "child_psychiatry", "name": "Oakley Psychological Associates", "phone": "+1-773-453-6112", "website": "https://oakleypsychologicalassociates.com/"}}, {"type": "node", "id": 10570922694, "lat": 41.9143659, "lon": -87.6550835, "tags": {"addr:city": "Chicago", "addr:housenumber": "1731", "addr:state": "IL", "addr:street": "North Marcy Street", "addr:unit": "505;510", "email": "scheduling@cfctherapy.com", "healthcare": "psychotherapist", "name": "CFC Therapy", "office": "therapist", "opening_hours": "Mo-Fr 07:00-20:00; Sa, Su 09:00-15:00", "phone": "+1 312-618-4867", "website": "https://cfctherapy.com/contact/"}}, {"type": "node", "id": 11234505452, "lat": 41.9564384, "lon": -87.6515618, "tags": {"check_date": "2023-10-02", "healthcare": "psychotherapist", "name": "Lu Rocha Counseling Services"}}, {"type": "node", "id": 11242106871, "lat": 41.9631482, "lon": -87.6558059, "tags": {"addr:city": "Chicago", "addr:housenumber": "4453", "addr:postcode": "60640", "addr:state": "IL", "addr:street": "North Broadway", "check_date": "2023-10-05", "healthcare": "psychotherapist", "name": "Chicago Treatment & Counseling", "phone": "+1 773-506-2900"}}, {"type": "node", "id": 12560744501, "lat": 41.9688037, "lon": -87.6850766, "tags": {"addr:city": "Chicago", "addr:housenumber": "2220", "addr:postcode": "60625", "addr:state": "IL", "addr:street": "West Lawrence Avenue", "facebook": "https://www.facebook.com/108969685198715", "healthcare": "psychotherapist", "leisure": "fitness_centre", "name": "InPowered Therapy + Yoga", "phone": "+1-312-834-4889", "sport": "yoga", "website": "https://www.inpoweredtherapy.com/"}}, {"type": "node", "id": 12588800999, "lat": 41.9621628, "lon": -87.6738497, "tags": {"addr:housenumber": "4419", "addr:street": "North Ravenswood Avenue", "description": "We provide people with intellectual and developmental disabilities and mental health issues quality services and supportive housing that promote choice, independence, and inclusion.", "healthcare": "psychotherapist", "name": "Envision Unlimited", "opening_hours": "Mo-Fr 09:00-17:00", "phone": "+1 773-506-3033", "website": "https://www.envisionunlimited.org/"}}, {"type": "node", "id": 12605428045, "lat": 41.9688412, "lon": -87.6837658, "tags": {"addr:city": "Chicago", "addr:housenumber": "2150", "addr:postcode": "60625", "addr:state": "IL", "addr:street": "West Lawrence Avenue", "addr:unit": "Suite A", "branch": "Lincoln Square/Ravenswood", "healthcare": "psychotherapist", "name": "Transcend Counseling Chicago", "phone": "+1 773-887-6447", "website": "https://transcendchicago.com/"}}, {"type": "node", "id": 12704095111, "lat": 41.8651615, "lon": -87.6252836, "tags": {"addr:city": "Chicago", "addr:country": "US", "addr:housenumber": "1325", "addr:postcode": "60605", "addr:state": "IL", "addr:street": "South Wabash Avenue", "addr:unit": "302", "email": "info@mtdintl.com", "healthcare": "psychotherapist", "healthcare:speciality": "psychiatry", "name": "Smelling the Difference, LLC", "opening_hours": "Mo-Fr 08:00-20:00; Sa 09:00-18:00; Su 09:00-19:00", "operator": "Gail Grabczynski", "phone": "+1-312-607-1385", "website": "https://www.mtdintl.com/"}}, {"type": "node", "id": 13038489951, "lat": 41.9602669, "lon": -87.6538082, "tags": {"healthcare": "psychotherapist", "name": "Mado Healthcare"}}, {"type": "node", "id": 13096329029, "lat": 41.9367211, "lon": -87.6496655, "tags": {"addr:city": "Chicago", "addr:housenumber": "3000", "addr:postcode": "60657", "addr:state": "IL", "addr:street": "North Halsted Street", "addr:unit": "803", "contact:instagram": "https://www.instagram.com/tidesmentalhealth/", "contact:linkedin": "https://www.linkedin.com/company/tides-mental-health/", "email": "info@tidesmentalhealth.com", "healthcare": "psychotherapist", "healthcare:speciality": "mental_health_clinic;counselor;social_worker;psychotherapist;family_counselor;marriage_or_relationship_counselor;mental_health_service", "language:en": "yes", "language:es": "yes", "name": "Tides Mental Health", "opening_hours": "Mo-Fr 08:00-20:00; Sa, Su off", "payment:american_express": "yes", "payment:discover_card": "yes", "payment:mastercard": "yes", "payment:visa": "yes", "phone": "+1 312-376-1665", "website": "https://tidesmentalhealth.com/"}}, {"type": "node", "id": 13143196102, "lat": 41.9526333, "lon": -87.6785676, "tags": {"addr:housenumber": "3907", "addr:street": "North Damen Avenue", "healthcare": "psychotherapist", "name": "Grace Therapy and Wellness Center"}}, {"type": "node", "id": 13160129801, "lat": 41.9543218, "lon": -87.6785083, "tags": {"addr:housenumber": "1954", "addr:street": "West Irving Park Road", "healthcare": "psychotherapist", "name": "Psychotherapy Associates of Chicago"}}, {"type": "node", "id": 13160147401, "lat": 41.9579448, "lon": -87.6786486, "tags": {"addr:housenumber": "4201-4203", "addr:street": "North Damen Avenue", "healthcare": "psychotherapist", "name": "Cultivate Counseling Group", "website": "https://www.cultivatecounselinggroup.com/"}}, {"type": "node", "id": 13160147501, "lat": 41.9580252, "lon": -87.6786507, "tags": {"addr:housenumber": "4203", "addr:street": "North Damen Avenue", "healthcare": "psychotherapist", "name": "Reclaim Counseling and Consulting"}}, {"type": "node", "id": 13160214101, "lat": 41.9575526, "lon": -87.681318, "tags": {"addr:city": "Chicago", "addr:housenumber": "4160", "addr:postcode": "60618", "addr:state": "IL", "addr:street": "North Lincoln Avenue", "healthcare": "psychotherapist", "name": "Journey Psychology Center", "phone": "+1-312-870-0330", "website": "https://journeypsychology.org/"}}, {"type": "node", "id": 13518379101, "lat": 41.9566924, "lon": -87.6747759, "tags": {"addr:housenumber": "1801", "addr:postcode": "60613", "addr:street": "West Warner Avenue", "healthcare": "psychotherapist", "name": "Illinois Behavioral Health Group", "website": "https://illinoisbhg.com/"}}]}